{
"type": "FeatureCollection",
"features": [
{ "type": "Feature", "properties": { "program": "CDBG Roof", "Latitude": 40.674281, "Longitude": -89.623854, "Number": 1911.0, "Street": "W Starr St", "City": "Peoria", "State": "IL", "Zip": 61605 }, "geometry": { "type": "Point", "coordinates": [ -89.623854, 40.674281 ] } },
{ "type": "Feature", "properties": { "program": "CDBG Roof", "Latitude": 40.671558, "Longitude": -89.627254, "Number": 1513.0, "Street": "S Lydia Ave", "City": "Peoria", "State": "IL", "Zip": 61605 }, "geometry": { "type": "Point", "coordinates": [ -89.627254, 40.671558 ] } },
{ "type": "Feature", "properties": { "program": "CDBG Roof", "Latitude": 40.68108, "Longitude": -89.630301, "Number": 2324.0, "Street": "W Lincoln Ave", "City": "Peoria", "State": "IL", "Zip": 61605 }, "geometry": { "type": "Point", "coordinates": [ -89.630301, 40.68108 ] } },
{ "type": "Feature", "properties": { "program": "CDBG Roof", "Latitude": 40.747471, "Longitude": -89.604547, "Number": 4919.0, "Street": "N Everts Ct", "City": "Peoria", "State": "IL", "Zip": 61614 }, "geometry": { "type": "Point", "coordinates": [ -89.604547, 40.747471 ] } },
{ "type": "Feature", "properties": { "program": "CDBG Roof", "Latitude": 40.718989, "Longitude": -89.59573, "Number": 203.0, "Street": "W Virginia Ave", "City": "Peoria", "State": "IL", "Zip": 61604 }, "geometry": { "type": "Point", "coordinates": [ -89.59573, 40.718989 ] } },
{ "type": "Feature", "properties": { "program": "CDBG Roof", "Latitude": 40.730578, "Longitude": -89.572274, "Number": 1412.0, "Street": "E Paris Ave", "City": "Peoria", "State": "IL", "Zip": 61603 }, "geometry": { "type": "Point", "coordinates": [ -89.572274, 40.730578 ] } },
{ "type": "Feature", "properties": { "program": "CDBG Roof", "Latitude": 40.723125, "Longitude": -89.584447, "Number": 731.0, "Street": "E Maywood Ave", "City": "Peoria", "State": "IL", "Zip": 61603 }, "geometry": { "type": "Point", "coordinates": [ -89.584447, 40.723125 ] } },
{ "type": "Feature", "properties": { "program": "CDBG Roof", "Latitude": 40.719863, "Longitude": -89.577223, "Number": 1230.0, "Street": "E Seneca Pl", "City": "Peoria", "State": "IL", "Zip": 61603 }, "geometry": { "type": "Point", "coordinates": [ -89.577223, 40.719863 ] } },
{ "type": "Feature", "properties": { "program": "CDBG Roof", "Latitude": 40.699433, "Longitude": -89.700415, "Number": 922.0, "Street": "N Norwood Blvd", "City": "Peoria", "State": "IL", "Zip": 61604 }, "geometry": { "type": "Point", "coordinates": [ -89.700415, 40.699433 ] } },
{ "type": "Feature", "properties": { "program": "CDBG Roof", "Latitude": 40.680167, "Longitude": -89.631053, "Number": 2404.0, "Street": "W Wiswall St", "City": "Peoria", "State": "IL", "Zip": 61605 }, "geometry": { "type": "Point", "coordinates": [ -89.631053, 40.680167 ] } },
{ "type": "Feature", "properties": { "program": "CDBG Roof", "Latitude": 40.670309, "Longitude": -89.635079, "Number": 1600.0, "Street": "S Ligonier St", "City": "Peoria", "State": "IL", "Zip": 61605 }, "geometry": { "type": "Point", "coordinates": [ -89.635079, 40.670309 ] } },
{ "type": "Feature", "properties": { "program": "CDBG Roof", "Latitude": 40.714458, "Longitude": -89.563271, "Number": 515.0, "Street": "Alexander Ave", "City": "Peoria", "State": "IL", "Zip": 61603 }, "geometry": { "type": "Point", "coordinates": [ -89.563271, 40.714458 ] } },
{ "type": "Feature", "properties": { "program": "CDBG Roof", "Latitude": 40.716398, "Longitude": -89.587213, "Number": 601.0, "Street": "E Archer Ave", "City": "Peoria", "State": "IL", "Zip": 61603 }, "geometry": { "type": "Point", "coordinates": [ -89.587213, 40.716398 ] } },
{ "type": "Feature", "properties": { "program": "CDBG Roof", "Latitude": 40.683276, "Longitude": -89.612117, "Number": 428.0, "Street": "S Webster St", "City": "Peoria", "State": "IL", "Zip": 61605 }, "geometry": { "type": "Point", "coordinates": [ -89.612117, 40.683276 ] } },
{ "type": "Feature", "properties": { "program": "CDBG Roof", "Latitude": 40.688373, "Longitude": -89.610271, "Number": 1015.0, "Street": "W Hurlburt St", "City": "Peoria", "State": "IL", "Zip": 61605 }, "geometry": { "type": "Point", "coordinates": [ -89.610271, 40.688373 ] } },
{ "type": "Feature", "properties": { "program": "CDBG Roof", "Latitude": 40.709805, "Longitude": -89.591191, "Number": 1828.0, "Street": "N Peoria Ave", "City": "Peoria", "State": "IL", "Zip": 61603 }, "geometry": { "type": "Point", "coordinates": [ -89.591191, 40.709805 ] } },
{ "type": "Feature", "properties": { "program": "CDBG Roof", "Latitude": 40.712882, "Longitude": -89.576722, "Number": 217.0, "Street": "Ridgemont", "City": "Peoria", "State": "IL", "Zip": 61603 }, "geometry": { "type": "Point", "coordinates": [ -89.576722, 40.712882 ] } },
{ "type": "Feature", "properties": { "program": "CDBG Roof", "Latitude": 40.725446, "Longitude": -89.588496, "Number": 3114.0, "Street": "N California Ave", "City": "Peoria", "State": "IL", "Zip": 61603 }, "geometry": { "type": "Point", "coordinates": [ -89.588496, 40.725446 ] } },
{ "type": "Feature", "properties": { "program": "CDBG Roof", "Latitude": 40.711976, "Longitude": -89.589519, "Number": 410.0, "Street": "E Frye Ave", "City": "Peoria", "State": "IL", "Zip": 61603 }, "geometry": { "type": "Point", "coordinates": [ -89.589519, 40.711976 ] } },
{ "type": "Feature", "properties": { "program": "CDBG Roof", "Latitude": 40.714591, "Longitude": -89.60198, "Number": 2210.0, "Street": "N Ellis St", "City": "Peoria", "State": "IL", "Zip": 61604 }, "geometry": { "type": "Point", "coordinates": [ -89.60198, 40.714591 ] } },
{ "type": "Feature", "properties": { "program": "CDBG Roof", "Latitude": 40.718574, "Longitude": -89.595747, "Number": 200.0, "Street": "W Virginia Ave", "City": "Peoria", "State": "IL", "Zip": 61604 }, "geometry": { "type": "Point", "coordinates": [ -89.595747, 40.718574 ] } },
{ "type": "Feature", "properties": { "program": "CDBG Roof", "Latitude": 40.680168, "Longitude": -89.63234, "Number": 2430.0, "Street": "W Wiswall St", "City": "Peoria", "State": "IL", "Zip": 61605 }, "geometry": { "type": "Point", "coordinates": [ -89.63234, 40.680168 ] } },
{ "type": "Feature", "properties": { "program": "CDBG Roof", "Latitude": 40.697323, "Longitude": -89.606919, "Number": 807.0, "Street": "N Orange St", "City": "Peoria", "State": "IL", "Zip": 61606 }, "geometry": { "type": "Point", "coordinates": [ -89.606919, 40.697323 ] } },
{ "type": "Feature", "properties": { "program": "CDBG Roof", "Latitude": 40.68069, "Longitude": -89.631956, "Number": 2423.0, "Street": "W Wiswall St", "City": "Peoria", "State": "IL", "Zip": 61605 }, "geometry": { "type": "Point", "coordinates": [ -89.631956, 40.68069 ] } },
{ "type": "Feature", "properties": { "program": "CDBG Roof", "Latitude": 40.718907, "Longitude": -89.609089, "Number": 1017.0, "Street": "W Virginia Ave", "City": "Peoria", "State": "IL", "Zip": 61604 }, "geometry": { "type": "Point", "coordinates": [ -89.609089, 40.718907 ] } },
{ "type": "Feature", "properties": { "program": "CDBG Roof", "Latitude": 40.711065, "Longitude": -89.599772, "Number": 1912.0, "Street": "N Hampton Ct", "City": "Peoria", "State": "IL", "Zip": 61604 }, "geometry": { "type": "Point", "coordinates": [ -89.599772, 40.711065 ] } },
{ "type": "Feature", "properties": { "program": "CDBG Roof", "Latitude": 40.731694, "Longitude": -89.63229, "Number": 3619.0, "Street": "N Sterling Ave", "City": "Peoria", "State": "IL", "Zip": 61604 }, "geometry": { "type": "Point", "coordinates": [ -89.63229, 40.731694 ] } },
{ "type": "Feature", "properties": { "program": "CDBG Roof", "Latitude": 40.687942, "Longitude": -89.616752, "Number": 1517.0, "Street": "W Widenham St", "City": "Peoria", "State": "IL", "Zip": 61605 }, "geometry": { "type": "Point", "coordinates": [ -89.616752, 40.687942 ] } },
{ "type": "Feature", "properties": { "program": "CDBG Roof", "Latitude": 40.710174, "Longitude": -89.591946, "Number": 1837.0, "Street": "N Peoria Ave", "City": "Peoria", "State": "IL", "Zip": 61603 }, "geometry": { "type": "Point", "coordinates": [ -89.591946, 40.710174 ] } },
{ "type": "Feature", "properties": { "program": "CDBG Roof", "Latitude": 40.716123, "Longitude": -89.56219, "Number": 513.0, "Street": "Fairholm Ave", "City": "Peoria", "State": "IL", "Zip": 61603 }, "geometry": { "type": "Point", "coordinates": [ -89.56219, 40.716123 ] } },
{ "type": "Feature", "properties": { "program": "CDBG Roof", "Latitude": 40.703772, "Longitude": -89.576685, "Number": 1317.0, "Street": "NE Madison Ave", "City": "Peoria", "State": "IL", "Zip": 61603 }, "geometry": { "type": "Point", "coordinates": [ -89.576685, 40.703772 ] } },
{ "type": "Feature", "properties": { "program": "CDBG Roof", "Latitude": 40.723986, "Longitude": -89.624395, "Number": 2015.0, "Street": "W Harper Ter", "City": "Peoria", "State": "IL", "Zip": 61604 }, "geometry": { "type": "Point", "coordinates": [ -89.624395, 40.723986 ] } },
{ "type": "Feature", "properties": { "program": "CDBG Roof", "Latitude": 40.712309, "Longitude": -89.564172, "Number": 2509.0, "Street": "NE Madison Ave", "City": "Peoria", "State": "IL", "Zip": 61603 }, "geometry": { "type": "Point", "coordinates": [ -89.564172, 40.712309 ] } },
{ "type": "Feature", "properties": { "program": "CDBG Roof", "Latitude": 40.719781, "Longitude": -89.605215, "Number": 805.0, "Street": "W Gift Ave", "City": "Peoria", "State": "IL", "Zip": 61604 }, "geometry": { "type": "Point", "coordinates": [ -89.605215, 40.719781 ] } },
{ "type": "Feature", "properties": { "program": "CDBG Roof", "Latitude": 40.711509, "Longitude": -89.567857, "Number": 123.0, "Street": "NE Rock Island Ave", "City": "Peoria", "State": "IL", "Zip": 61603 }, "geometry": { "type": "Point", "coordinates": [ -89.567857, 40.711509 ] } },
{ "type": "Feature", "properties": { "program": "CDBG Roof", "Latitude": 40.672738, "Longitude": -89.632563, "Number": 1408.0, "Street": "S Griswold St", "City": "Peoria", "State": "IL", "Zip": 61605 }, "geometry": { "type": "Point", "coordinates": [ -89.632563, 40.672738 ] } },
{ "type": "Feature", "properties": { "program": "CDBG Roof", "Latitude": 40.722319, "Longitude": -89.589849, "Number": 403.0, "Street": "E Corrington Ave", "City": "Peoria", "State": "IL", "Zip": 61603 }, "geometry": { "type": "Point", "coordinates": [ -89.589849, 40.722319 ] } },
{ "type": "Feature", "properties": { "program": "CDBG Roof", "Latitude": 40.71477, "Longitude": -89.607884, "Number": 920.0, "Street": "W Thrush Ave", "City": "Peoria", "State": "IL", "Zip": 61604 }, "geometry": { "type": "Point", "coordinates": [ -89.607884, 40.71477 ] } },
{ "type": "Feature", "properties": { "program": "CDBG Roof", "Latitude": 40.686119, "Longitude": -89.620289, "Number": 1717.0, "Street": "W Martin St", "City": "Peoria", "State": "IL", "Zip": 61605 }, "geometry": { "type": "Point", "coordinates": [ -89.620289, 40.686119 ] } },
{ "type": "Feature", "properties": { "program": "CDBG Roof", "Latitude": 40.724004, "Longitude": -89.578491, "Number": 1113.0, "Street": "E Melbourne Ave", "City": "Peoria", "State": "IL", "Zip": 61603 }, "geometry": { "type": "Point", "coordinates": [ -89.578491, 40.724004 ] } },
{ "type": "Feature", "properties": { "program": "CDBG Roof", "Latitude": 40.715898, "Longitude": -89.589721, "Number": 322.0, "Street": "E Archer Ave", "City": "Peoria", "State": "IL", "Zip": 61603 }, "geometry": { "type": "Point", "coordinates": [ -89.589721, 40.715898 ] } },
{ "type": "Feature", "properties": { "program": "CDBG Roof", "Latitude": 40.747786, "Longitude": -89.5993, "Number": 4924.0, "Street": "N Endres Ave", "City": "Peoria", "State": "IL", "Zip": 61614 }, "geometry": { "type": "Point", "coordinates": [ -89.5993, 40.747786 ] } },
{ "type": "Feature", "properties": { "program": "CDBG Roof", "Latitude": 40.765985, "Longitude": -89.636492, "Number": 2805.0, "Street": "W Pine Hill Ln", "City": "Peoria", "State": "IL", "Zip": 61614 }, "geometry": { "type": "Point", "coordinates": [ -89.636492, 40.765985 ] } },
{ "type": "Feature", "properties": { "program": "CDBG Roof", "Latitude": 40.707002, "Longitude": -89.585088, "Number": 722.0, "Street": "E Bel Aire Ct", "City": "Peoria", "State": "IL", "Zip": 61603 }, "geometry": { "type": "Point", "coordinates": [ -89.585088, 40.707002 ] } },
{ "type": "Feature", "properties": { "program": "CDBG Roof", "Latitude": 40.714039, "Longitude": -89.585114, "Number": 718.0, "Street": "E Thrush Ave", "City": "Peoria", "State": "IL", "Zip": 61603 }, "geometry": { "type": "Point", "coordinates": [ -89.585114, 40.714039 ] } },
{ "type": "Feature", "properties": { "program": "CDBG Roof", "Latitude": 40.681487, "Longitude": -89.613586, "Number": 1303.0, "Street": "W Lincoln Ave", "City": "Peoria", "State": "IL", "Zip": 61605 }, "geometry": { "type": "Point", "coordinates": [ -89.613586, 40.681487 ] } },
{ "type": "Feature", "properties": { "program": "CDBG Roof", "Latitude": 40.724004, "Longitude": -89.578815, "Number": 1109.0, "Street": "E Melbourne Ave", "City": "Peoria", "State": "IL", "Zip": 61603 }, "geometry": { "type": "Point", "coordinates": [ -89.578815, 40.724004 ] } },
{ "type": "Feature", "properties": { "program": "CDBG Roof", "Latitude": 40.74296, "Longitude": -89.599093, "Number": 416.0, "Street": "W Lakewood Ave", "City": "Peoria", "State": "IL", "Zip": 61614 }, "geometry": { "type": "Point", "coordinates": [ -89.599093, 40.74296 ] } },
{ "type": "Feature", "properties": { "program": "CDBG Roof", "Latitude": 40.754984, "Longitude": -89.622923, "Number": 5515.0, "Street": "N Montello Dr", "City": "Peoria", "State": "IL", "Zip": 61614 }, "geometry": { "type": "Point", "coordinates": [ -89.622923, 40.754984 ] } },
{ "type": "Feature", "properties": { "program": "CDBG Roof", "Latitude": 40.738942, "Longitude": -89.609991, "Number": 1125.0, "Street": "W Lakecrest Dr", "City": "Peoria", "State": "IL", "Zip": 61614 }, "geometry": { "type": "Point", "coordinates": [ -89.609991, 40.738942 ] } },
{ "type": "Feature", "properties": { "program": "CDBG Roof", "Latitude": 40.722343, "Longitude": -89.591999, "Number": 205.0, "Street": "E Corrington Ave", "City": "Peoria", "State": "IL", "Zip": 61603 }, "geometry": { "type": "Point", "coordinates": [ -89.591999, 40.722343 ] } },
{ "type": "Feature", "properties": { "program": "CDBG Roof", "Latitude": 40.706932, "Longitude": -89.57394, "Number": 1621.0, "Street": "NE Monroe St", "City": "Peoria", "State": "IL", "Zip": 61603 }, "geometry": { "type": "Point", "coordinates": [ -89.57394, 40.706932 ] } },
{ "type": "Feature", "properties": { "program": "CDBG Roof", "Latitude": 40.72178, "Longitude": -89.587109, "Number": 606.0, "Street": "E Corrington Ave", "City": "Peoria", "State": "IL", "Zip": 61603 }, "geometry": { "type": "Point", "coordinates": [ -89.587109, 40.72178 ] } },
{ "type": "Feature", "properties": { "program": "CDBG Roof", "Latitude": 40.687028, "Longitude": -89.614412, "Number": 1317.0, "Street": "W Smith St", "City": "Peoria", "State": "IL", "Zip": 61605 }, "geometry": { "type": "Point", "coordinates": [ -89.614412, 40.687028 ] } },
{ "type": "Feature", "properties": { "program": "CDBG Roof", "Latitude": 40.721907, "Longitude": -89.598869, "Number": 404.0, "Street": "W Corrington Ave", "City": "Peoria", "State": "IL", "Zip": 61604 }, "geometry": { "type": "Point", "coordinates": [ -89.598869, 40.721907 ] } },
{ "type": "Feature", "properties": { "program": "CDBG Roof", "Latitude": 40.704222, "Longitude": -89.577029, "Number": 1316.0, "Street": "NE Monroe St", "City": "Peoria", "State": "IL", "Zip": 61603 }, "geometry": { "type": "Point", "coordinates": [ -89.577029, 40.704222 ] } },
{ "type": "Feature", "properties": { "program": "CDBG Roof", "Latitude": 40.682503, "Longitude": -89.626518, "Number": 2109.0, "Street": "W Howett St", "City": "Peoria", "State": "IL", "Zip": 61605 }, "geometry": { "type": "Point", "coordinates": [ -89.626518, 40.682503 ] } },
{ "type": "Feature", "properties": { "program": "CDBG Roof", "Latitude": 40.709096, "Longitude": -89.607796, "Number": 1723.0, "Street": "N Broadway St", "City": "Peoria", "State": "IL", "Zip": 61604 }, "geometry": { "type": "Point", "coordinates": [ -89.607796, 40.709096 ] } },
{ "type": "Feature", "properties": { "program": "CDBG Roof", "Latitude": 40.737104, "Longitude": -89.570419, "Number": 4118.0, "Street": "N Dayton Ave", "City": "Peoria", "State": "IL", "Zip": 61614 }, "geometry": { "type": "Point", "coordinates": [ -89.570419, 40.737104 ] } },
{ "type": "Feature", "properties": { "program": "CDBG Roof", "Latitude": 40.736704, "Longitude": -89.584804, "Number": 4102.0, "Street": "N New York Ave", "City": "Peoria", "State": "IL", "Zip": 61614 }, "geometry": { "type": "Point", "coordinates": [ -89.584804, 40.736704 ] } },
{ "type": "Feature", "properties": { "program": "CDBG Roof", "Latitude": 40.716625, "Longitude": -89.563506, "Number": 625.0, "Street": "Fairholm Ave", "City": "Peoria", "State": "IL", "Zip": 61603 }, "geometry": { "type": "Point", "coordinates": [ -89.563506, 40.716625 ] } },
{ "type": "Feature", "properties": { "program": "CDBG Roof", "Latitude": 40.720698, "Longitude": -89.606007, "Number": 815.0, "Street": "W Hanssler Pl", "City": "Peoria", "State": "IL", "Zip": 61604 }, "geometry": { "type": "Point", "coordinates": [ -89.606007, 40.720698 ] } },
{ "type": "Feature", "properties": { "program": "CDBG Roof", "Latitude": 40.735343, "Longitude": -89.63664, "Number": 3908.0, "Street": "N Walround Ln", "City": "Peoria", "State": "IL", "Zip": 61615 }, "geometry": { "type": "Point", "coordinates": [ -89.63664, 40.735343 ] } },
{ "type": "Feature", "properties": { "program": "CDBG Roof", "Latitude": 40.742495, "Longitude": -89.601002, "Number": 4514.0, "Street": "N Pleasant Ridge Ct", "City": "Peoria", "State": "IL", "Zip": 61614 }, "geometry": { "type": "Point", "coordinates": [ -89.601002, 40.742495 ] } },
{ "type": "Feature", "properties": { "program": "CDBG Roof", "Latitude": 40.719214, "Longitude": -89.597332, "Number": 2609.0, "Street": "N Bigelow St", "City": "Peoria", "State": "IL", "Zip": 61604 }, "geometry": { "type": "Point", "coordinates": [ -89.597332, 40.719214 ] } },
{ "type": "Feature", "properties": { "program": "CDBG Roof", "Latitude": 40.677416, "Longitude": -89.626414, "Number": 2104.0, "Street": "W Antoinette St", "City": "Peoria", "State": "IL", "Zip": 61605 }, "geometry": { "type": "Point", "coordinates": [ -89.626414, 40.677416 ] } },
{ "type": "Feature", "properties": { "program": "CDBG Roof", "Latitude": 40.711932, "Longitude": -89.596752, "Number": 2010.0, "Street": "N Bigelow St", "City": "Peoria", "State": "IL", "Zip": 61604 }, "geometry": { "type": "Point", "coordinates": [ -89.596752, 40.711932 ] } },
{ "type": "Feature", "properties": { "program": "CDBG Roof", "Latitude": 40.693137, "Longitude": -89.589847, "Number": 1018.0, "Street": "W Romeo Garret", "City": "Peoria", "State": "IL", "Zip": 61601 }, "geometry": { "type": "Point", "coordinates": [ -89.589847, 40.693137 ] } },
{ "type": "Feature", "properties": { "program": "CDBG Roof", "Latitude": 40.676147, "Longitude": -89.632975, "Number": 2503.0, "Street": "W Garden St", "City": "Peoria", "State": "IL", "Zip": 61605 }, "geometry": { "type": "Point", "coordinates": [ -89.632975, 40.676147 ] } },
{ "type": "Feature", "properties": { "program": "CDBG Roof", "Latitude": 40.752756, "Longitude": -89.590584, "Number": 208.0, "Street": "E Elaine Ave", "City": "Peoria", "State": "IL", "Zip": 61614 }, "geometry": { "type": "Point", "coordinates": [ -89.590584, 40.752756 ] } },
{ "type": "Feature", "properties": { "program": "CDBG Roof", "Latitude": 40.709564, "Longitude": -89.604843, "Number": 1800.0, "Street": "N Gale Ave", "City": "Peoria", "State": "IL", "Zip": 61604 }, "geometry": { "type": "Point", "coordinates": [ -89.604843, 40.709564 ] } },
{ "type": "Feature", "properties": { "program": "CDBG Roof", "Latitude": 40.716537, "Longitude": -89.605207, "Number": 804.0, "Street": "W Macqueen Ave", "City": "Peoria", "State": "IL", "Zip": 61604 }, "geometry": { "type": "Point", "coordinates": [ -89.605207, 40.716537 ] } },
{ "type": "Feature", "properties": { "program": "CDBG Roof", "Latitude": 40.711056, "Longitude": -89.588636, "Number": 500.0, "Street": "E Kansas St", "City": "Peoria", "State": "IL", "Zip": 61603 }, "geometry": { "type": "Point", "coordinates": [ -89.588636, 40.711056 ] } },
{ "type": "Feature", "properties": { "program": "CDBG Roof", "Latitude": 40.708768, "Longitude": -89.608366, "Number": 1712.0, "Street": "N Machin Ave", "City": "Peoria", "State": "IL", "Zip": 61606 }, "geometry": { "type": "Point", "coordinates": [ -89.608366, 40.708768 ] } },
{ "type": "Feature", "properties": { "program": "CDBG Roof", "Latitude": 40.715424, "Longitude": -89.56423, "Number": 636.0, "Street": "Alexander Ave", "City": "Peoria", "State": "IL", "Zip": 61603 }, "geometry": { "type": "Point", "coordinates": [ -89.56423, 40.715424 ] } },
{ "type": "Feature", "properties": { "program": "CDBG Roof", "Latitude": 40.720423, "Longitude": -89.576609, "Number": 2703.0, "Street": "N Prospect Rd", "City": "Peoria", "State": "IL", "Zip": 61603 }, "geometry": { "type": "Point", "coordinates": [ -89.576609, 40.720423 ] } },
{ "type": "Feature", "properties": { "program": "CDBG Roof", "Latitude": 40.718937, "Longitude": -89.624242, "Number": 1924.0, "Street": "W Virginia Ave", "City": "Peoria", "State": "IL", "Zip": 61604 }, "geometry": { "type": "Point", "coordinates": [ -89.624242, 40.718937 ] } },
{ "type": "Feature", "properties": { "program": "CDBG Roof", "Latitude": 40.762239, "Longitude": -89.650059, "Number": 3805.0, "Street": "W Warwick Dr", "City": "Peoria", "State": "IL", "Zip": 61615 }, "geometry": { "type": "Point", "coordinates": [ -89.650059, 40.762239 ] } },
{ "type": "Feature", "properties": { "program": "CDBG Roof", "Latitude": 40.728685, "Longitude": -89.624033, "Number": 2008.0, "Street": "W Richwoods Bv", "City": "Peoria", "State": "IL", "Zip": 61604 }, "geometry": { "type": "Point", "coordinates": [ -89.624033, 40.728685 ] } },
{ "type": "Feature", "properties": { "program": "CDBG Roof", "Latitude": 40.725121, "Longitude": -89.630833, "Number": 2404.0, "Street": "W Forrest Hill Ave", "City": "Peoria", "State": "IL", "Zip": 61604 }, "geometry": { "type": "Point", "coordinates": [ -89.630833, 40.725121 ] } },
{ "type": "Feature", "properties": { "program": "CDBG Roof", "Latitude": 40.712947, "Longitude": -89.610596, "Number": 2050.0, "Street": "N Gale Ave", "City": "Peoria", "State": "IL", "Zip": 61604 }, "geometry": { "type": "Point", "coordinates": [ -89.610596, 40.712947 ] } },
{ "type": "Feature", "properties": { "program": "CDBG Roof", "Latitude": 40.732724, "Longitude": -89.651108, "Number": 3636.0, "Street": "W Cassadaga Ct", "City": "Peoria", "State": "IL", "Zip": 61615 }, "geometry": { "type": "Point", "coordinates": [ -89.651108, 40.732724 ] } },
{ "type": "Feature", "properties": { "program": "CDBG Roof", "Latitude": 40.68202, "Longitude": -89.626349, "Number": 2106.0, "Street": "W Howett St", "City": "Peoria", "State": "IL", "Zip": 61605 }, "geometry": { "type": "Point", "coordinates": [ -89.626349, 40.68202 ] } },
{ "type": "Feature", "properties": { "program": "CDBG Roof", "Latitude": 40.686117, "Longitude": -89.618504, "Number": 1605.0, "Street": "W Martin St", "City": "Peoria", "State": "IL", "Zip": 61605 }, "geometry": { "type": "Point", "coordinates": [ -89.618504, 40.686117 ] } },
{ "type": "Feature", "properties": { "program": "CDBG Roof", "Latitude": 40.676177, "Longitude": -89.63741, "Number": 2813.0, "Street": "W Garden St", "City": "Peoria", "State": "IL", "Zip": 61605 }, "geometry": { "type": "Point", "coordinates": [ -89.63741, 40.676177 ] } },
{ "type": "Feature", "properties": { "program": "CDBG Roof", "Latitude": 40.683758, "Longitude": -89.619297, "Number": 1614.0, "Street": "W Butler St", "City": "Peoria", "State": "IL", "Zip": 61605 }, "geometry": { "type": "Point", "coordinates": [ -89.619297, 40.683758 ] } },
{ "type": "Feature", "properties": { "program": "CDBG Roof", "Latitude": 40.673083, "Longitude": -89.642061, "Number": 3034.0, "Street": "W Latrobe St", "City": "Peoria", "State": "IL", "Zip": 61605 }, "geometry": { "type": "Point", "coordinates": [ -89.642061, 40.673083 ] } },
{ "type": "Feature", "properties": { "program": "CDBG Roof", "Latitude": 40.684283, "Longitude": -89.617772, "Number": 1535.0, "Street": "W Butler St", "City": "Peoria", "State": "IL", "Zip": 61605 }, "geometry": { "type": "Point", "coordinates": [ -89.617772, 40.684283 ] } },
{ "type": "Feature", "properties": { "program": "CDBG Roof", "Latitude": 40.675735, "Longitude": -89.619787, "Number": 1101.0, "Street": "S Matthew St", "City": "Peoria", "State": "IL", "Zip": 61605 }, "geometry": { "type": "Point", "coordinates": [ -89.619787, 40.675735 ] } },
{ "type": "Feature", "properties": { "program": "CDBG Roof", "Latitude": 40.662116, "Longitude": -89.638043, "Number": 2303.0, "Street": "S Oregon St", "City": "Peoria", "State": "IL", "Zip": 61605 }, "geometry": { "type": "Point", "coordinates": [ -89.638043, 40.662116 ] } },
{ "type": "Feature", "properties": { "program": "CDBG Roof", "Latitude": 40.705452, "Longitude": -89.571764, "Number": 410.0, "Street": "Cornhill St", "City": "Peoria", "State": "IL", "Zip": 61603 }, "geometry": { "type": "Point", "coordinates": [ -89.571764, 40.705452 ] } },
{ "type": "Feature", "properties": { "program": "CDBG Roof", "Latitude": 40.719791, "Longitude": -89.606077, "Number": 821.0, "Street": "W Gift Ave", "City": "Peoria", "State": "IL", "Zip": 61604 }, "geometry": { "type": "Point", "coordinates": [ -89.606077, 40.719791 ] } },
{ "type": "Feature", "properties": { "program": "CDBG Roof", "Latitude": 40.75516, "Longitude": -89.623299, "Number": 5518.0, "Street": "N Merrimac Ave", "City": "Peoria", "State": "IL", "Zip": 61614 }, "geometry": { "type": "Point", "coordinates": [ -89.623299, 40.75516 ] } },
{ "type": "Feature", "properties": { "program": "CDBG Roof", "Latitude": 40.729509, "Longitude": -89.632833, "Number": 3410.0, "Street": "N Rockwood Rd", "City": "Peoria", "State": "IL", "Zip": 61604 }, "geometry": { "type": "Point", "coordinates": [ -89.632833, 40.729509 ] } },
{ "type": "Feature", "properties": { "program": "CDBG Roof", "Latitude": 40.711948, "Longitude": -89.585765, "Number": 706.0, "Street": "E Frye Ave", "City": "Peoria", "State": "IL", "Zip": 61603 }, "geometry": { "type": "Point", "coordinates": [ -89.585765, 40.711948 ] } },
{ "type": "Feature", "properties": { "program": "CDBG Roof", "Latitude": 40.676719, "Longitude": -89.617401, "Number": 1020.0, "Street": "S Shelley St", "City": "Peoria", "State": "IL", "Zip": 61605 }, "geometry": { "type": "Point", "coordinates": [ -89.617401, 40.676719 ] } },
{ "type": "Feature", "properties": { "program": "CDBG Roof", "Latitude": 40.705548, "Longitude": -89.602539, "Number": 1425.0, "Street": "N Ellis St", "City": "Peoria", "State": "IL", "Zip": 61606 }, "geometry": { "type": "Point", "coordinates": [ -89.602539, 40.705548 ] } },
{ "type": "Feature", "properties": { "program": "CDBG Roof", "Latitude": 40.707675, "Longitude": -89.59772, "Number": 1623.0, "Street": "N Bigelow St", "City": "Peoria", "State": "IL", "Zip": 61604 }, "geometry": { "type": "Point", "coordinates": [ -89.59772, 40.707675 ] } },
{ "type": "Feature", "properties": { "program": "CDBG Roof", "Latitude": 40.693137, "Longitude": -89.589847, "Number": 600.0, "Street": "E Thrursh", "City": "Peoria", "State": "IL", "Zip": 61601 }, "geometry": { "type": "Point", "coordinates": [ -89.589847, 40.693137 ] } },
{ "type": "Feature", "properties": { "program": "CDBG Roof", "Latitude": 40.708734, "Longitude": -89.582185, "Number": 913.0, "Street": "E Ravine Ave", "City": "Peoria", "State": "IL", "Zip": 61603 }, "geometry": { "type": "Point", "coordinates": [ -89.582185, 40.708734 ] } },
{ "type": "Feature", "properties": { "program": "CDBG Roof", "Latitude": 40.712561, "Longitude": -89.633589, "Number": 2524.0, "Street": "W Flint St", "City": "Peoria", "State": "IL", "Zip": 61604 }, "geometry": { "type": "Point", "coordinates": [ -89.633589, 40.712561 ] } },
{ "type": "Feature", "properties": { "program": "CDBG Roof", "Latitude": 40.693137, "Longitude": -89.589847, "Number": 1712.0, "Street": "California", "City": "Peoria", "State": "IL", "Zip": 61601 }, "geometry": { "type": "Point", "coordinates": [ -89.589847, 40.693137 ] } },
{ "type": "Feature", "properties": { "program": "CDBG Roof", "Latitude": 40.708687, "Longitude": -89.607797, "Number": 1713.0, "Street": "N Broadway St", "City": "Peoria", "State": "IL", "Zip": 61604 }, "geometry": { "type": "Point", "coordinates": [ -89.607797, 40.708687 ] } },
{ "type": "Feature", "properties": { "program": "CDBG Roof", "Latitude": 40.706273, "Longitude": -89.573837, "Number": 1608.0, "Street": "NE Monroe St", "City": "Peoria", "State": "IL", "Zip": 61603 }, "geometry": { "type": "Point", "coordinates": [ -89.573837, 40.706273 ] } },
{ "type": "Feature", "properties": { "program": "CDBG Roof", "Latitude": 40.681627, "Longitude": -89.631965, "Number": 2415.0, "Street": "W Lincoln Ave", "City": "Peoria", "State": "IL", "Zip": 61605 }, "geometry": { "type": "Point", "coordinates": [ -89.631965, 40.681627 ] } },
{ "type": "Feature", "properties": { "program": "CDBG Roof", "Latitude": 40.693137, "Longitude": -89.589847, "Number": 2323.0, "Street": "W Antionette", "City": "Peoria", "State": "IL", "Zip": 61601 }, "geometry": { "type": "Point", "coordinates": [ -89.589847, 40.693137 ] } },
{ "type": "Feature", "properties": { "program": "CDBG Roof", "Latitude": 40.693137, "Longitude": -89.589847, "Number": 2001.0, "Street": "N North", "City": "Peoria", "State": "IL", "Zip": 61601 }, "geometry": { "type": "Point", "coordinates": [ -89.589847, 40.693137 ] } },
{ "type": "Feature", "properties": { "program": "CDBG Emergency", "Latitude": 40.712446, "Longitude": -89.607459, "Number": 904.0, "Street": "W Meadows Pl", "City": "Peoria", "State": "IL", "Zip": 61604 }, "geometry": { "type": "Point", "coordinates": [ -89.607459, 40.712446 ] } },
{ "type": "Feature", "properties": { "program": "CDBG Emergency", "Latitude": 40.682443, "Longitude": -89.622309, "Number": 1829.0, "Street": "W Howett St", "City": "Peoria", "State": "IL", "Zip": 61605 }, "geometry": { "type": "Point", "coordinates": [ -89.622309, 40.682443 ] } },
{ "type": "Feature", "properties": { "program": "CDBG Emergency", "Latitude": 40.66944, "Longitude": -89.630208, "Number": 1702.0, "Street": "S Arago St", "City": "Peoria", "State": "IL", "Zip": 61605 }, "geometry": { "type": "Point", "coordinates": [ -89.630208, 40.66944 ] } },
{ "type": "Feature", "properties": { "program": "CDBG Emergency", "Latitude": 40.677418, "Longitude": -89.627517, "Number": 2124.0, "Street": "W Antoinette St", "City": "Peoria", "State": "IL", "Zip": 61605 }, "geometry": { "type": "Point", "coordinates": [ -89.627517, 40.677418 ] } },
{ "type": "Feature", "properties": { "program": "CDBG Emergency", "Latitude": 40.703435, "Longitude": -89.586708, "Number": 920.0, "Street": "Wayne St", "City": "Peoria", "State": "IL", "Zip": 61603 }, "geometry": { "type": "Point", "coordinates": [ -89.586708, 40.703435 ] } },
{ "type": "Feature", "properties": { "program": "CDBG Emergency", "Latitude": 40.704958, "Longitude": -89.578456, "Number": 1310.0, "Street": "NE Perry Ave", "City": "Peoria", "State": "IL", "Zip": 61603 }, "geometry": { "type": "Point", "coordinates": [ -89.578456, 40.704958 ] } },
{ "type": "Feature", "properties": { "program": "CDBG Emergency", "Latitude": 40.681641, "Longitude": -89.636742, "Number": 2803.0, "Street": "W Lincoln Ave", "City": "Peoria", "State": "IL", "Zip": 61605 }, "geometry": { "type": "Point", "coordinates": [ -89.636742, 40.681641 ] } },
{ "type": "Feature", "properties": { "program": "CDBG Emergency", "Latitude": 40.693137, "Longitude": -89.589847, "Number": 806.0, "Street": "MacQueen", "City": "Peoria", "State": "IL", "Zip": 61601 }, "geometry": { "type": "Point", "coordinates": [ -89.589847, 40.693137 ] } },
{ "type": "Feature", "properties": { "program": "CDBG Emergency", "Latitude": 40.693137, "Longitude": -89.589847, "Number": 3131.0, "Street": "Western", "City": "Peoria", "State": "IL", "Zip": 61601 }, "geometry": { "type": "Point", "coordinates": [ -89.589847, 40.693137 ] } },
{ "type": "Feature", "properties": { "program": "CDBG Emergency", "Latitude": 40.690555, "Longitude": -89.634395, "Number": 2532.0, "Street": "W Sherman Ave", "City": "Peoria", "State": "IL", "Zip": 61606 }, "geometry": { "type": "Point", "coordinates": [ -89.634395, 40.690555 ] } },
{ "type": "Feature", "properties": { "program": "CDBG Emergency", "Latitude": 40.760058, "Longitude": -89.655669, "Number": 4003.0, "Street": "W Brighton Ave", "City": "Peoria", "State": "IL", "Zip": 61615 }, "geometry": { "type": "Point", "coordinates": [ -89.655669, 40.760058 ] } },
{ "type": "Feature", "properties": { "program": "CDBG Emergency", "Latitude": 40.678905, "Longitude": -89.645301, "Number": 951.0, "Street": "S Tonti Cir", "City": "Peoria", "State": "IL", "Zip": 61605 }, "geometry": { "type": "Point", "coordinates": [ -89.645301, 40.678905 ] } },
{ "type": "Feature", "properties": { "program": "CDBG Emergency", "Latitude": 40.724842, "Longitude": -89.603693, "Number": 3029.0, "Street": "N Sheridan Rd", "City": "Peoria", "State": "IL", "Zip": 61604 }, "geometry": { "type": "Point", "coordinates": [ -89.603693, 40.724842 ] } },
{ "type": "Feature", "properties": { "program": "CDBG Emergency", "Latitude": 40.713109, "Longitude": -89.598454, "Number": 2118.0, "Street": "N North St", "City": "Peoria", "State": "IL", "Zip": 61604 }, "geometry": { "type": "Point", "coordinates": [ -89.598454, 40.713109 ] } },
{ "type": "Feature", "properties": { "program": "CDBG Emergency", "Latitude": 40.708388, "Longitude": -89.642121, "Number": 1616.0, "Street": "N Great Oak Ct", "City": "Peoria", "State": "IL", "Zip": 61604 }, "geometry": { "type": "Point", "coordinates": [ -89.642121, 40.708388 ] } },
{ "type": "Feature", "properties": { "program": "CDBG Emergency", "Latitude": 40.682435, "Longitude": -89.611413, "Number": 1101.0, "Street": "W Howett St", "City": "Peoria", "State": "IL", "Zip": 61605 }, "geometry": { "type": "Point", "coordinates": [ -89.611413, 40.682435 ] } },
{ "type": "Feature", "properties": { "program": "CDBG Emergency", "Latitude": 40.71495, "Longitude": -89.564573, "Number": 633.0, "Street": "Alexander Ave", "City": "Peoria", "State": "IL", "Zip": 61603 }, "geometry": { "type": "Point", "coordinates": [ -89.564573, 40.71495 ] } },
{ "type": "Feature", "properties": { "program": "CDBG Emergency", "Latitude": 40.72071, "Longitude": -89.606981, "Number": 909.0, "Street": "W Hanssler Pl", "City": "Peoria", "State": "IL", "Zip": 61604 }, "geometry": { "type": "Point", "coordinates": [ -89.606981, 40.72071 ] } },
{ "type": "Feature", "properties": { "program": "CDBG Emergency", "Latitude": 40.708545, "Longitude": -89.566494, "Number": 2111.0, "Street": "NE Jefferson Ave", "City": "Peoria", "State": "IL", "Zip": 61603 }, "geometry": { "type": "Point", "coordinates": [ -89.566494, 40.708545 ] } },
{ "type": "Feature", "properties": { "program": "CDBG Emergency", "Latitude": 40.670808, "Longitude": -89.632587, "Number": 1534.0, "Street": "S Griswold St", "City": "Peoria", "State": "IL", "Zip": 61605 }, "geometry": { "type": "Point", "coordinates": [ -89.632587, 40.670808 ] } },
{ "type": "Feature", "properties": { "program": "CDBG Emergency", "Latitude": 40.6796, "Longitude": -89.622299, "Number": 819.0, "Street": "S Greenlawn Ave", "City": "Peoria", "State": "IL", "Zip": 61605 }, "geometry": { "type": "Point", "coordinates": [ -89.622299, 40.6796 ] } },
{ "type": "Feature", "properties": { "program": "CDBG Emergency", "Latitude": 40.722071, "Longitude": -89.628977, "Number": 2806.0, "Street": "N Mission Rd", "City": "Peoria", "State": "IL", "Zip": 61604 }, "geometry": { "type": "Point", "coordinates": [ -89.628977, 40.722071 ] } },
{ "type": "Feature", "properties": { "program": "CDBG Emergency", "Latitude": 40.686116, "Longitude": -89.617843, "Number": 1537.0, "Street": "W Martin St", "City": "Peoria", "State": "IL", "Zip": 61605 }, "geometry": { "type": "Point", "coordinates": [ -89.617843, 40.686116 ] } },
{ "type": "Feature", "properties": { "program": "CDBG Emergency", "Latitude": 40.693137, "Longitude": -89.589847, "Number": 2401.0, "Street": "Howett", "City": "Peoria", "State": "IL", "Zip": 61601 }, "geometry": { "type": "Point", "coordinates": [ -89.589847, 40.693137 ] } },
{ "type": "Feature", "properties": { "program": "CDBG Emergency", "Latitude": 40.714233, "Longitude": -89.569318, "Number": 2502.0, "Street": "NE Perry Ave", "City": "Peoria", "State": "IL", "Zip": 61603 }, "geometry": { "type": "Point", "coordinates": [ -89.569318, 40.714233 ] } },
{ "type": "Feature", "properties": { "program": "CDBG Emergency", "Latitude": 40.67797, "Longitude": -89.631571, "Number": 2415.0, "Street": "W Antoinette St", "City": "Peoria", "State": "IL", "Zip": 61605 }, "geometry": { "type": "Point", "coordinates": [ -89.631571, 40.67797 ] } },
{ "type": "Feature", "properties": { "program": "CDBG Emergency", "Latitude": 40.724248, "Longitude": -89.627959, "Number": 2213.0, "Street": "W Vernon Ct", "City": "Peoria", "State": "IL", "Zip": 61604 }, "geometry": { "type": "Point", "coordinates": [ -89.627959, 40.724248 ] } },
{ "type": "Feature", "properties": { "program": "CDBG Emergency", "Latitude": 40.719229, "Longitude": -89.561888, "Number": 609.0, "Street": "Tracy St", "City": "Peoria", "State": "IL", "Zip": 61603 }, "geometry": { "type": "Point", "coordinates": [ -89.561888, 40.719229 ] } },
{ "type": "Feature", "properties": { "program": "CDBG Emergency", "Latitude": 40.708232, "Longitude": -89.642115, "Number": 1610.0, "Street": "N Great Oak Ct", "City": "Peoria", "State": "IL", "Zip": 61604 }, "geometry": { "type": "Point", "coordinates": [ -89.642115, 40.708232 ] } },
{ "type": "Feature", "properties": { "program": "CDBG Emergency", "Latitude": 40.669262, "Longitude": -89.624897, "Number": 1705.0, "Street": "S Easton Ave", "City": "Peoria", "State": "IL", "Zip": 61605 }, "geometry": { "type": "Point", "coordinates": [ -89.624897, 40.669262 ] } },
{ "type": "Feature", "properties": { "program": "CDBG Emergency", "Latitude": 40.758433, "Longitude": -89.651577, "Number": 3716.0, "Street": "W Verner Dr", "City": "Peoria", "State": "IL", "Zip": 61614 }, "geometry": { "type": "Point", "coordinates": [ -89.651577, 40.758433 ] } },
{ "type": "Feature", "properties": { "program": "CDBG Emergency", "Latitude": 40.71532, "Longitude": -89.563971, "Number": 626.0, "Street": "Alexander Ave", "City": "Peoria", "State": "IL", "Zip": 61603 }, "geometry": { "type": "Point", "coordinates": [ -89.563971, 40.71532 ] } },
{ "type": "Feature", "properties": { "program": "CDBG Emergency", "Latitude": 40.714105, "Longitude": -89.590855, "Number": 304.0, "Street": "E Thrush Ave", "City": "Peoria", "State": "IL", "Zip": 61603 }, "geometry": { "type": "Point", "coordinates": [ -89.590855, 40.714105 ] } },
{ "type": "Feature", "properties": { "program": "CDBG Emergency", "Latitude": 40.679989, "Longitude": -89.610754, "Number": 1020.0, "Street": "W George St", "City": "Peoria", "State": "IL", "Zip": 61605 }, "geometry": { "type": "Point", "coordinates": [ -89.610754, 40.679989 ] } },
{ "type": "Feature", "properties": { "program": "CDBG Emergency", "Latitude": 40.715557, "Longitude": -89.563366, "Number": 607.0, "Street": "Vine St", "City": "Peoria", "State": "IL", "Zip": 61603 }, "geometry": { "type": "Point", "coordinates": [ -89.563366, 40.715557 ] } },
{ "type": "Feature", "properties": { "program": "CDBG Emergency", "Latitude": 40.724484, "Longitude": -89.628568, "Number": 3011.0, "Street": "N Village Dr", "City": "Peoria", "State": "IL", "Zip": 61604 }, "geometry": { "type": "Point", "coordinates": [ -89.628568, 40.724484 ] } },
{ "type": "Feature", "properties": { "program": "CDBG Emergency", "Latitude": 40.67746, "Longitude": -89.634577, "Number": 2612.0, "Street": "W Antoinette St", "City": "Peoria", "State": "IL", "Zip": 61605 }, "geometry": { "type": "Point", "coordinates": [ -89.634577, 40.67746 ] } },
{ "type": "Feature", "properties": { "program": "CDBG Emergency", "Latitude": 40.674288, "Longitude": -89.624921, "Number": 2009.0, "Street": "W Starr St", "City": "Peoria", "State": "IL", "Zip": 61605 }, "geometry": { "type": "Point", "coordinates": [ -89.624921, 40.674288 ] } },
{ "type": "Feature", "properties": { "program": "CDBG Emergency", "Latitude": 40.717088, "Longitude": -89.591692, "Number": 2417.0, "Street": "N Peoria Ave", "City": "Peoria", "State": "IL", "Zip": 61603 }, "geometry": { "type": "Point", "coordinates": [ -89.591692, 40.717088 ] } },
{ "type": "Feature", "properties": { "program": "CDBG Emergency", "Latitude": 40.71252, "Longitude": -89.591085, "Number": 2104.0, "Street": "N Peoria Ave", "City": "Peoria", "State": "IL", "Zip": 61603 }, "geometry": { "type": "Point", "coordinates": [ -89.591085, 40.71252 ] } },
{ "type": "Feature", "properties": { "program": "CDBG Emergency", "Latitude": 40.726761, "Longitude": -89.584415, "Number": 3219.0, "Street": "N Wisconsin Ave", "City": "Peoria", "State": "IL", "Zip": 61603 }, "geometry": { "type": "Point", "coordinates": [ -89.584415, 40.726761 ] } },
{ "type": "Feature", "properties": { "program": "CDBG Emergency", "Latitude": 40.754945, "Longitude": -89.626749, "Number": 2109.0, "Street": "W Austin Dr", "City": "Peoria", "State": "IL", "Zip": 61614 }, "geometry": { "type": "Point", "coordinates": [ -89.626749, 40.754945 ] } },
{ "type": "Feature", "properties": { "program": "CDBG Emergency", "Latitude": 40.739922, "Longitude": -89.589115, "Number": 4314.0, "Street": "N Independence Ave", "City": "Peoria", "State": "IL", "Zip": 61614 }, "geometry": { "type": "Point", "coordinates": [ -89.589115, 40.739922 ] } },
{ "type": "Feature", "properties": { "program": "CDBG Emergency", "Latitude": 40.675612, "Longitude": -89.62854, "Number": 2210.0, "Street": "W Garden St", "City": "Peoria", "State": "IL", "Zip": 61602 }, "geometry": { "type": "Point", "coordinates": [ -89.62854, 40.675612 ] } },
{ "type": "Feature", "properties": { "program": "CDBG Emergency", "Latitude": 40.711053, "Longitude": -89.636017, "Number": 2709.0, "Street": "W Nebraska Ave", "City": "Peoria", "State": "IL", "Zip": 61604 }, "geometry": { "type": "Point", "coordinates": [ -89.636017, 40.711053 ] } },
{ "type": "Feature", "properties": { "program": "CDBG Emergency", "Latitude": 40.679659, "Longitude": -89.616421, "Number": 817.0, "Street": "S Sumner Ave", "City": "Peoria", "State": "IL", "Zip": 61601 }, "geometry": { "type": "Point", "coordinates": [ -89.616421, 40.679659 ] } },
{ "type": "Feature", "properties": { "program": "CDBG Emergency", "Latitude": 40.724573, "Longitude": -89.628011, "Number": 3012.0, "Street": "N Village Dr", "City": "Peoria", "State": "IL", "Zip": 61604 }, "geometry": { "type": "Point", "coordinates": [ -89.628011, 40.724573 ] } },
{ "type": "Feature", "properties": { "program": "CDBG Emergency", "Latitude": 40.749463, "Longitude": -89.630169, "Number": 5027.0, "Street": "N Renwood St", "City": "Peoria", "State": "IL", "Zip": 61614 }, "geometry": { "type": "Point", "coordinates": [ -89.630169, 40.749463 ] } },
{ "type": "Feature", "properties": { "program": "CDBG Emergency", "Latitude": 40.715124, "Longitude": -89.597572, "Number": 2225.0, "Street": "N Bigelow St", "City": "Peoria", "State": "IL", "Zip": 61604 }, "geometry": { "type": "Point", "coordinates": [ -89.597572, 40.715124 ] } },
{ "type": "Feature", "properties": { "program": "CDBG Emergency", "Latitude": 40.708395, "Longitude": -89.605883, "Number": 1716.0, "Street": "N Bestor St", "City": "Peoria", "State": "IL", "Zip": 61604 }, "geometry": { "type": "Point", "coordinates": [ -89.605883, 40.708395 ] } },
{ "type": "Feature", "properties": { "program": "CDBG Emergency", "Latitude": 40.717051, "Longitude": -89.605137, "Number": 803.0, "Street": "W Macqueen Ave", "City": "Peoria", "State": "IL", "Zip": 61604 }, "geometry": { "type": "Point", "coordinates": [ -89.605137, 40.717051 ] } },
{ "type": "Feature", "properties": { "program": "CDBG Emergency", "Latitude": 40.677027, "Longitude": -89.627367, "Number": 2121.0, "Street": "W Marquette St", "City": "Peoria", "State": "IL", "Zip": 61605 }, "geometry": { "type": "Point", "coordinates": [ -89.627367, 40.677027 ] } },
{ "type": "Feature", "properties": { "program": "CDBG Emergency", "Latitude": 40.721725, "Longitude": -89.631499, "Number": 2807.0, "Street": "N Renwood Ave", "City": "Peoria", "State": "IL", "Zip": 61604 }, "geometry": { "type": "Point", "coordinates": [ -89.631499, 40.721725 ] } },
{ "type": "Feature", "properties": { "program": "CDBG Emergency", "Latitude": 40.759568, "Longitude": -89.654128, "Number": 5912.0, "Street": "N Sedley St", "City": "Peoria", "State": "IL", "Zip": 61615 }, "geometry": { "type": "Point", "coordinates": [ -89.654128, 40.759568 ] } },
{ "type": "Feature", "properties": { "program": "CDBG Emergency", "Latitude": 40.689493, "Longitude": -89.635634, "Number": 2637.0, "Street": "W Moss Ave", "City": "Peoria", "State": "IL", "Zip": 61604 }, "geometry": { "type": "Point", "coordinates": [ -89.635634, 40.689493 ] } },
{ "type": "Feature", "properties": { "program": "CDBG Ramp", "Latitude": 40.669318, "Longitude": -89.640407, "Number": 1705.0, "Street": "S Idaho St", "City": "Peoria", "State": "IL", "Zip": 61605 }, "geometry": { "type": "Point", "coordinates": [ -89.640407, 40.669318 ] } },
{ "type": "Feature", "properties": { "program": "CDBG Ramp", "Latitude": 40.737409, "Longitude": -89.610624, "Number": 1114.0, "Street": "W Willow Ln", "City": "Peoria", "State": "IL", "Zip": 61614 }, "geometry": { "type": "Point", "coordinates": [ -89.610624, 40.737409 ] } },
{ "type": "Feature", "properties": { "program": "CDBG Ramp", "Latitude": 40.70116, "Longitude": -89.607468, "Number": 1100.0, "Street": "N Garfield Ave", "City": "Peoria", "State": "IL", "Zip": 61606 }, "geometry": { "type": "Point", "coordinates": [ -89.607468, 40.70116 ] } },
{ "type": "Feature", "properties": { "program": "CDBG Ramp", "Latitude": 40.68154, "Longitude": -89.620817, "Number": 1801.0, "Street": "W Lincoln Ave", "City": "Peoria", "State": "IL", "Zip": 61605 }, "geometry": { "type": "Point", "coordinates": [ -89.620817, 40.68154 ] } },
{ "type": "Feature", "properties": { "program": "CDBG Ramp", "Latitude": 40.679266, "Longitude": -89.630858, "Number": 2400.0, "Street": "W Ann St", "City": "Peoria", "State": "IL", "Zip": 61605 }, "geometry": { "type": "Point", "coordinates": [ -89.630858, 40.679266 ] } },
{ "type": "Feature", "properties": { "program": "CDBG Ramp", "Latitude": 40.715235, "Longitude": -89.639657, "Number": 2220.0, "Street": "N Idaho St", "City": "Peoria", "State": "IL", "Zip": 61604 }, "geometry": { "type": "Point", "coordinates": [ -89.639657, 40.715235 ] } },
{ "type": "Feature", "properties": { "program": "CDBG Ramp", "Latitude": 40.704457, "Longitude": -89.587138, "Number": 607.0, "Street": "E Armstrong Ave", "City": "Peoria", "State": "IL", "Zip": 61603 }, "geometry": { "type": "Point", "coordinates": [ -89.587138, 40.704457 ] } },
{ "type": "Feature", "properties": { "program": "CDBG Ramp", "Latitude": 40.728454, "Longitude": -89.626435, "Number": 3318.0, "Street": "N Gale Ave", "City": "Peoria", "State": "IL", "Zip": 61604 }, "geometry": { "type": "Point", "coordinates": [ -89.626435, 40.728454 ] } },
{ "type": "Feature", "properties": { "program": "CDBG Ramp", "Latitude": 40.669318, "Longitude": -89.640407, "Number": 1705.0, "Street": "S Idaho St", "City": "Peoria", "State": "IL", "Zip": 61605 }, "geometry": { "type": "Point", "coordinates": [ -89.640407, 40.669318 ] } },
{ "type": "Feature", "properties": { "program": "CDBG Ramp", "Latitude": 40.6865, "Longitude": -89.615333, "Number": 1412.0, "Street": "W Smith St", "City": "Peoria", "State": "IL", "Zip": 61605 }, "geometry": { "type": "Point", "coordinates": [ -89.615333, 40.6865 ] } },
{ "type": "Feature", "properties": { "program": "CDBG Lead Match", "Latitude": 40.683623, "Longitude": -89.62599, "Number": 430.0, "Street": "S Madison Park Ter", "City": "Peoria", "State": "IL", "Zip": 61605 }, "geometry": { "type": "Point", "coordinates": [ -89.62599, 40.683623 ] } },
{ "type": "Feature", "properties": { "program": "CDBG Lead Match", "Latitude": 40.685195, "Longitude": -89.614141, "Number": 1313.0, "Street": "W Kettelle St", "City": "Peoria", "State": "IL", "Zip": 61605 }, "geometry": { "type": "Point", "coordinates": [ -89.614141, 40.685195 ] } },
{ "type": "Feature", "properties": { "program": "CDBG Lead Match", "Latitude": 40.693137, "Longitude": -89.589847, "Number": 620.0, "Street": "E Frey Ave", "City": "Peoria", "State": "IL", "Zip": 61601 }, "geometry": { "type": "Point", "coordinates": [ -89.589847, 40.693137 ] } },
{ "type": "Feature", "properties": { "program": "CDBG Lead Match", "Latitude": 40.693137, "Longitude": -89.589847, "Number": 1608.0, "Street": "Bigelow", "City": "Peoria", "State": "IL", "Zip": 61601 }, "geometry": { "type": "Point", "coordinates": [ -89.589847, 40.693137 ] } },
{ "type": "Feature", "properties": { "program": "CDBG Lead Match", "Latitude": 40.714915, "Longitude": -89.582143, "Number": 902.0, "Street": "E Arcadia Ave", "City": "Peoria", "State": "IL", "Zip": 61603 }, "geometry": { "type": "Point", "coordinates": [ -89.582143, 40.714915 ] } },
{ "type": "Feature", "properties": { "program": "CDBG Lead Match", "Latitude": 40.717782, "Longitude": -89.588749, "Number": 501.0, "Street": "E McClure Ave", "City": "Peoria", "State": "IL", "Zip": 61603 }, "geometry": { "type": "Point", "coordinates": [ -89.588749, 40.717782 ] } },
{ "type": "Feature", "properties": { "program": "CDBG Lead Match", "Latitude": 40.68202, "Longitude": -89.626349, "Number": 2106.0, "Street": "W Howett St", "City": "Peoria", "State": "IL", "Zip": 61605 }, "geometry": { "type": "Point", "coordinates": [ -89.626349, 40.68202 ] } },
{ "type": "Feature", "properties": { "program": "CDBG Lead Match", "Latitude": 40.717764, "Longitude": -89.586768, "Number": 611.0, "Street": "E McClure Ave", "City": "Peoria", "State": "IL", "Zip": 61603 }, "geometry": { "type": "Point", "coordinates": [ -89.586768, 40.717764 ] } },
{ "type": "Feature", "properties": { "program": "CDBG Lead Match", "Latitude": 40.711499, "Longitude": -89.589834, "Number": 2002.0, "Street": "N Missouri Ave", "City": "Peoria", "State": "IL", "Zip": 61603 }, "geometry": { "type": "Point", "coordinates": [ -89.589834, 40.711499 ] } },
{ "type": "Feature", "properties": { "program": "CDBG Lead Match", "Latitude": 40.702486, "Longitude": -89.601977, "Number": 1206.0, "Street": "N Ellis St", "City": "Peoria", "State": "IL", "Zip": 61606 }, "geometry": { "type": "Point", "coordinates": [ -89.601977, 40.702486 ] } },
{ "type": "Feature", "properties": { "program": "CDBG Lead Match", "Latitude": 40.714639, "Longitude": -89.592434, "Number": 201.0, "Street": "E Thrush Ave", "City": "Peoria", "State": "IL", "Zip": 61603 }, "geometry": { "type": "Point", "coordinates": [ -89.592434, 40.714639 ] } },
{ "type": "Feature", "properties": { "program": "CDBG Lead Match", "Latitude": 40.693137, "Longitude": -89.589847, "Number": 1018.0, "Street": "W Romero B Garrett Ave", "City": "Peoria", "State": "IL", "Zip": 61601 }, "geometry": { "type": "Point", "coordinates": [ -89.589847, 40.693137 ] } },
{ "type": "Feature", "properties": { "program": "CDBG Lead Match", "Latitude": 40.684279, "Longitude": -89.616189, "Number": 1507.0, "Street": "W Butler St", "City": "Peoria", "State": "IL", "Zip": 61605 }, "geometry": { "type": "Point", "coordinates": [ -89.616189, 40.684279 ] } },
{ "type": "Feature", "properties": { "program": "CDBG Lead Match", "Latitude": 40.677026, "Longitude": -89.627763, "Number": 2129.0, "Street": "W Marquette St", "City": "Peoria", "State": "IL", "Zip": 61605 }, "geometry": { "type": "Point", "coordinates": [ -89.627763, 40.677026 ] } },
{ "type": "Feature", "properties": { "program": "CDBG Lead Match", "Latitude": 40.718031, "Longitude": -89.611395, "Number": 1201.0, "Street": "W McClure Ave", "City": "Peoria", "State": "IL", "Zip": 61604 }, "geometry": { "type": "Point", "coordinates": [ -89.611395, 40.718031 ] } },
{ "type": "Feature", "properties": { "program": "CDBG Lead Match", "Latitude": 40.708151, "Longitude": -89.585993, "Number": 702.0, "Street": "E Ravine Ave", "City": "Peoria", "State": "IL", "Zip": 61603 }, "geometry": { "type": "Point", "coordinates": [ -89.585993, 40.708151 ] } },
{ "type": "Feature", "properties": { "program": "CDBG Lead Match", "Latitude": 40.676119, "Longitude": -89.628087, "Number": 2205.0, "Street": "W Garden St", "City": "Peoria", "State": "IL", "Zip": 61602 }, "geometry": { "type": "Point", "coordinates": [ -89.628087, 40.676119 ] } },
{ "type": "Feature", "properties": { "program": "CDBG Lead Match", "Latitude": 40.693137, "Longitude": -89.589847, "Number": 2803.0, "Street": "Arlington", "City": "Peoria", "State": "IL", "Zip": 61601 }, "geometry": { "type": "Point", "coordinates": [ -89.589847, 40.693137 ] } },
{ "type": "Feature", "properties": { "program": "CDBG Lead Match", "Latitude": 40.7116, "Longitude": -89.579809, "Number": 1101.0, "Street": "E Kansas St", "City": "Peoria", "State": "IL", "Zip": 61603 }, "geometry": { "type": "Point", "coordinates": [ -89.579809, 40.7116 ] } },
{ "type": "Feature", "properties": { "program": "CDBG Lead Match", "Latitude": 40.677185, "Longitude": -89.621161, "Number": 1011.0, "Street": "S Blaine St", "City": "Peoria", "State": "IL", "Zip": 61605 }, "geometry": { "type": "Point", "coordinates": [ -89.621161, 40.677185 ] } },
{ "type": "Feature", "properties": { "program": "CDBG Lead Match", "Latitude": 40.676563, "Longitude": -89.625687, "Number": 2016.0, "Street": "W Marquette Ave", "City": "Peoria", "State": "IL", "Zip": 61605 }, "geometry": { "type": "Point", "coordinates": [ -89.625687, 40.676563 ] } },
{ "type": "Feature", "properties": { "program": "CDBG Lead Match", "Latitude": 40.693137, "Longitude": -89.589847, "Number": 1405.0, "Street": "Gilbert", "City": "Peoria", "State": "IL", "Zip": 61601 }, "geometry": { "type": "Point", "coordinates": [ -89.589847, 40.693137 ] } },
{ "type": "Feature", "properties": { "program": "CDBG Lead Match", "Latitude": 40.71149, "Longitude": -89.5778, "Number": 2001.0, "Street": "N Prospect Rd", "City": "Peoria", "State": "IL", "Zip": 61603 }, "geometry": { "type": "Point", "coordinates": [ -89.5778, 40.71149 ] } },
{ "type": "Feature", "properties": { "program": "CDBG Lead Match", "Latitude": 40.714594, "Longitude": -89.588574, "Number": 423.0, "Street": "E Thrush Ave", "City": "Peoria", "State": "IL", "Zip": 61603 }, "geometry": { "type": "Point", "coordinates": [ -89.588574, 40.714594 ] } },
{ "type": "Feature", "properties": { "program": "CDBG Lead Match", "Latitude": 40.709805, "Longitude": -89.591191, "Number": 1828.0, "Street": "N Peoria Ave", "City": "Peoria", "State": "IL", "Zip": 61603 }, "geometry": { "type": "Point", "coordinates": [ -89.591191, 40.709805 ] } },
{ "type": "Feature", "properties": { "program": "CDBG Lead Match", "Latitude": 40.714106, "Longitude": -89.591059, "Number": 300.0, "Street": "E Thrush Ave", "City": "Peoria", "State": "IL", "Zip": 61603 }, "geometry": { "type": "Point", "coordinates": [ -89.591059, 40.714106 ] } },
{ "type": "Feature", "properties": { "program": "CDBG Lead Match", "Latitude": 40.72128, "Longitude": -89.592198, "Number": 2724.0, "Street": "N Dechman Ave", "City": "Peoria", "State": "IL", "Zip": 61603 }, "geometry": { "type": "Point", "coordinates": [ -89.592198, 40.72128 ] } },
{ "type": "Feature", "properties": { "program": "CDBG Lead Match", "Latitude": 40.702084, "Longitude": -89.605489, "Number": 1201.0, "Street": "N Douglas St", "City": "Peoria", "State": "IL", "Zip": 61606 }, "geometry": { "type": "Point", "coordinates": [ -89.605489, 40.702084 ] } },
{ "type": "Feature", "properties": { "program": "CDBG Lead Match", "Latitude": 40.708211, "Longitude": -89.589315, "Number": 1717.0, "Street": "N California Ave", "City": "Peoria", "State": "IL", "Zip": 61603 }, "geometry": { "type": "Point", "coordinates": [ -89.589315, 40.708211 ] } },
{ "type": "Feature", "properties": { "program": "CDBG Historic Rehab", "Latitude": 40.706032, "Longitude": -89.581459, "Number": 107.0, "Street": "N Glen View Ct", "City": "Peoria", "State": "IL", "Zip": 61603 }, "geometry": { "type": "Point", "coordinates": [ -89.581459, 40.706032 ] } },
{ "type": "Feature", "properties": { "program": "CDBG Historic Rehab", "Latitude": 40.700958, "Longitude": -89.58481, "Number": 802.0, "Street": "NE Perry Ave", "City": "Peoria", "State": "IL", "Zip": 61603 }, "geometry": { "type": "Point", "coordinates": [ -89.58481, 40.700958 ] } },
{ "type": "Feature", "properties": { "program": "CDBG Historic Rehab", "Latitude": 40.693137, "Longitude": -89.589847, "Number": 1206.0, "Street": "Ellis", "City": "Peoria", "State": "IL", "Zip": 61601 }, "geometry": { "type": "Point", "coordinates": [ -89.589847, 40.693137 ] } },
{ "type": "Feature", "properties": { "program": "CDBG TIF Match", "Latitude": 40.709549, "Longitude": -89.581234, "Number": 1011.0, "Street": "E Behrends Ave", "City": "Peoria", "State": "IL", "Zip": 61603 }, "geometry": { "type": "Point", "coordinates": [ -89.581234, 40.709549 ] } },
{ "type": "Feature", "properties": { "program": "CDBG TIF Match", "Latitude": 40.711311, "Longitude": -89.591928, "Number": 1923.0, "Street": "N Peoria Ave", "City": "Peoria", "State": "IL", "Zip": 61603 }, "geometry": { "type": "Point", "coordinates": [ -89.591928, 40.711311 ] } },
{ "type": "Feature", "properties": { "program": "CDBG TIF Match", "Latitude": 40.713575, "Longitude": -89.591737, "Number": 2129.0, "Street": "N Peoria Ave", "City": "Peoria", "State": "IL", "Zip": 61603 }, "geometry": { "type": "Point", "coordinates": [ -89.591737, 40.713575 ] } },
{ "type": "Feature", "properties": { "program": "CDBG TIF Match", "Latitude": 40.706754, "Longitude": -89.589893, "Number": 1610.0, "Street": "N Missouri Ave", "City": "Peoria", "State": "IL", "Zip": 61603 }, "geometry": { "type": "Point", "coordinates": [ -89.589893, 40.706754 ] } },
{ "type": "Feature", "properties": { "program": "CDBG TIF Match", "Latitude": 40.714726, "Longitude": -89.579671, "Number": 2208.0, "Street": "N Central Ave", "City": "Peoria", "State": "IL", "Zip": 61603 }, "geometry": { "type": "Point", "coordinates": [ -89.579671, 40.714726 ] } },
{ "type": "Feature", "properties": { "program": "CDBG Senior Housing Rebuilding Together", "Latitude": 40.688327, "Longitude": -89.614518, "Number": 1320.0, "Street": "W Aiken Ave", "City": "Peoria", "State": "IL", "Zip": 61605 }, "geometry": { "type": "Point", "coordinates": [ -89.614518, 40.688327 ] } },
{ "type": "Feature", "properties": { "program": "CDBG Senior Housing Rebuilding Together", "Latitude": 40.728899, "Longitude": -89.57713, "Number": 1108.0, "Street": "E Wilson Ave", "City": "Peoria", "State": "IL", "Zip": 61603 }, "geometry": { "type": "Point", "coordinates": [ -89.57713, 40.728899 ] } },
{ "type": "Feature", "properties": { "program": "CDBG Senior Housing Rebuilding Together", "Latitude": 40.715491, "Longitude": -89.587487, "Number": 521.0, "Street": "E Arcadia Ave", "City": "Peoria", "State": "IL", "Zip": 61603 }, "geometry": { "type": "Point", "coordinates": [ -89.587487, 40.715491 ] } },
{ "type": "Feature", "properties": { "program": "CDBG Senior Housing Rebuilding Together", "Latitude": 40.693137, "Longitude": -89.589847, "Number": 2407.0, "Street": "n Calififornia", "City": "Peoria", "State": "IL", "Zip": 61601 }, "geometry": { "type": "Point", "coordinates": [ -89.589847, 40.693137 ] } },
{ "type": "Feature", "properties": { "program": "CDBG Public Facility", "Latitude": 40.697632, "Longitude": -89.592509, "Number": 714.0, "Street": "Hamilton Blvd", "City": "Peoria", "State": "IL", "Zip": 61603 }, "geometry": { "type": "Point", "coordinates": [ -89.592509, 40.697632 ] } },
{ "type": "Feature", "properties": { "program": "CDBG Public Facility", "Latitude": 40.684737, "Longitude": -89.609103, "Number": 317.0, "Street": "S Macarthur Hwy", "City": "Peoria", "State": "IL", "Zip": 61605 }, "geometry": { "type": "Point", "coordinates": [ -89.609103, 40.684737 ] } },
{ "type": "Feature", "properties": { "program": "CDBG Public Facility", "Latitude": 40.683021, "Longitude": -89.616933, "Number": 514.0, "Street": "S Shelley St", "City": "Peoria", "State": "IL", "Zip": 61605 }, "geometry": { "type": "Point", "coordinates": [ -89.616933, 40.683021 ] } },
{ "type": "Feature", "properties": { "program": "CDBG Health Department Partnership", "Latitude": 40.708504, "Longitude": -89.605805, "Number": 1708.0, "Street": "N Bestor St", "City": "Peoria", "State": "IL", "Zip": 61604 }, "geometry": { "type": "Point", "coordinates": [ -89.605805, 40.708504 ] } },
{ "type": "Feature", "properties": { "program": "CDBG Health Department Partnership", "Latitude": 40.722423, "Longitude": -89.614672, "Number": 1405.0, "Street": "W Gilbert Ave", "City": "Peoria", "State": "IL", "Zip": 61604 }, "geometry": { "type": "Point", "coordinates": [ -89.614672, 40.722423 ] } },
{ "type": "Feature", "properties": { "program": "CDBG Health Department Partnership", "Latitude": 40.680162, "Longitude": -89.627637, "Number": 2128.0, "Street": "W Wiswall St", "City": "Peoria", "State": "IL", "Zip": 61605 }, "geometry": { "type": "Point", "coordinates": [ -89.627637, 40.680162 ] } },
{ "type": "Feature", "properties": { "program": "CDBG Health Department Partnership", "Latitude": 40.711987, "Longitude": -89.59086, "Number": 310.0, "Street": "E Frye Ave", "City": "Peoria", "State": "IL", "Zip": 61603 }, "geometry": { "type": "Point", "coordinates": [ -89.59086, 40.711987 ] } },
{ "type": "Feature", "properties": { "program": "CDBG Health Department Partnership", "Latitude": 40.686477, "Longitude": -89.620397, "Number": 1718.0, "Street": "W Smith St", "City": "Peoria", "State": "IL", "Zip": 61605 }, "geometry": { "type": "Point", "coordinates": [ -89.620397, 40.686477 ] } },
{ "type": "Feature", "properties": { "program": "CDBG Health Department Partnership", "Latitude": 40.704958, "Longitude": -89.578456, "Number": 1310.0, "Street": "NE Perry Ave", "City": "Peoria", "State": "IL", "Zip": 61603 }, "geometry": { "type": "Point", "coordinates": [ -89.578456, 40.704958 ] } },
{ "type": "Feature", "properties": { "program": "CDBG Health Department Partnership", "Latitude": 40.669799, "Longitude": -89.637071, "Number": 2803.0, "Street": "W Arlington Ave", "City": "Peoria", "State": "IL", "Zip": 61605 }, "geometry": { "type": "Point", "coordinates": [ -89.637071, 40.669799 ] } },
{ "type": "Feature", "properties": { "program": "CDBG Health Department Partnership", "Latitude": 40.718031, "Longitude": -89.611395, "Number": 1201.0, "Street": "W McClure Ave", "City": "Peoria", "State": "IL", "Zip": 61604 }, "geometry": { "type": "Point", "coordinates": [ -89.611395, 40.718031 ] } },
{ "type": "Feature", "properties": { "program": "CDBG Health Department Partnership", "Latitude": 40.693137, "Longitude": -89.589847, "Number": 1507.0, "Street": "Butler", "City": "Peoria", "State": "IL", "Zip": 61601 }, "geometry": { "type": "Point", "coordinates": [ -89.589847, 40.693137 ] } },
{ "type": "Feature", "properties": { "program": "CDBG Health Department Partnership", "Latitude": 40.693137, "Longitude": -89.589847, "Number": 2016.0, "Street": "Marquette", "City": "Peoria", "State": "IL", "Zip": 61601 }, "geometry": { "type": "Point", "coordinates": [ -89.589847, 40.693137 ] } },
{ "type": "Feature", "properties": { "program": "CDBG Health Department Partnership", "Latitude": 40.675182, "Longitude": -89.617952, "Number": 419.0, "Street": "Apple St", "City": "Peoria", "State": "IL", "Zip": 61605 }, "geometry": { "type": "Point", "coordinates": [ -89.617952, 40.675182 ] } },
{ "type": "Feature", "properties": { "program": "HOME East Bluff Initiative", "Latitude": 40.714553, "Longitude": -89.585101, "Number": 719.0, "Street": "E Thrush Ave", "City": "Peoria", "State": "IL", "Zip": 61603 }, "geometry": { "type": "Point", "coordinates": [ -89.585101, 40.714553 ] } },
{ "type": "Feature", "properties": { "program": "HOME East Bluff Initiative", "Latitude": 40.716991, "Longitude": -89.58164, "Number": 2411.0, "Street": "N Maryland Ave", "City": "Peoria", "State": "IL", "Zip": 61603 }, "geometry": { "type": "Point", "coordinates": [ -89.58164, 40.716991 ] } },
{ "type": "Feature", "properties": { "program": "HOME East Bluff Initiative", "Latitude": 40.716902, "Longitude": -89.582215, "Number": 2408.0, "Street": "N Delaware Ave", "City": "Peoria", "State": "IL", "Zip": 61603 }, "geometry": { "type": "Point", "coordinates": [ -89.582215, 40.716902 ] } },
{ "type": "Feature", "properties": { "program": "HOME Southside Rehab ", "Latitude": 40.681615, "Longitude": -89.628316, "Number": 2207.0, "Street": "W Lincoln Ave", "City": "Peoria", "State": "IL", "Zip": 61605 }, "geometry": { "type": "Point", "coordinates": [ -89.628316, 40.681615 ] } },
{ "type": "Feature", "properties": { "program": "HOME Southside Rehab ", "Latitude": 40.683371, "Longitude": -89.621194, "Number": 1809.0, "Street": "W Millman St", "City": "Peoria", "State": "IL", "Zip": 61605 }, "geometry": { "type": "Point", "coordinates": [ -89.621194, 40.683371 ] } },
{ "type": "Feature", "properties": { "program": "HOME Southside Rehab ", "Latitude": 40.676536, "Longitude": -89.633005, "Number": 2500.0, "Street": "W Marquette St", "City": "Peoria", "State": "IL", "Zip": 61605 }, "geometry": { "type": "Point", "coordinates": [ -89.633005, 40.676536 ] } },
{ "type": "Feature", "properties": { "program": "HOME Southside Rehab ", "Latitude": 40.686117, "Longitude": -89.618659, "Number": 1607.0, "Street": "W Martin St", "City": "Peoria", "State": "IL", "Zip": 61605 }, "geometry": { "type": "Point", "coordinates": [ -89.618659, 40.686117 ] } },
{ "type": "Feature", "properties": { "program": "HOME Southside Rehab ", "Latitude": 40.683369, "Longitude": -89.620027, "Number": 1709.0, "Street": "W Millman St", "City": "Peoria", "State": "IL", "Zip": 61605 }, "geometry": { "type": "Point", "coordinates": [ -89.620027, 40.683369 ] } },
{ "type": "Feature", "properties": { "program": "HOME Southside Rehab ", "Latitude": 40.684676, "Longitude": -89.620942, "Number": 1806.0, "Street": "W Kettelle St", "City": "Peoria", "State": "IL", "Zip": 61605 }, "geometry": { "type": "Point", "coordinates": [ -89.620942, 40.684676 ] } },
{ "type": "Feature", "properties": { "program": "HOME Southside Rehab ", "Latitude": 40.686119, "Longitude": -89.620289, "Number": 1717.0, "Street": "W Martin St", "City": "Peoria", "State": "IL", "Zip": 61605 }, "geometry": { "type": "Point", "coordinates": [ -89.620289, 40.686119 ] } },
{ "type": "Feature", "properties": { "program": "HOME Southside Rehab ", "Latitude": 40.680868, "Longitude": -89.621552, "Number": 710.0, "Street": "S Greenlawn Ave", "City": "Peoria", "State": "IL", "Zip": 61605 }, "geometry": { "type": "Point", "coordinates": [ -89.621552, 40.680868 ] } },
{ "type": "Feature", "properties": { "program": "HOME Schlarman House Rehab", "Latitude": 40.699028, "Longitude": -89.584203, "Number": 707.0, "Street": "NE Madison Ave", "City": "Peoria", "State": "IL", "Zip": 61603 }, "geometry": { "type": "Point", "coordinates": [ -89.584203, 40.699028 ] } },
{ "type": "Feature", "properties": { "program": "HOME CHDO New Construction ", "Latitude": 40.723498, "Longitude": -89.579038, "Number": 1102.0, "Street": "E Melbourne Ave", "City": "Peoria", "State": "IL", "Zip": 61603 }, "geometry": { "type": "Point", "coordinates": [ -89.579038, 40.723498 ] } },
{ "type": "Feature", "properties": { "program": "HOME CHDO New Construction ", "Latitude": 40.702326, "Longitude": -89.584044, "Number": 909.0, "Street": "NE Perry Ave", "City": "Peoria", "State": "IL", "Zip": 61603 }, "geometry": { "type": "Point", "coordinates": [ -89.584044, 40.702326 ] } },
{ "type": "Feature", "properties": { "program": "HOME CHDO New Construction ", "Latitude": 40.702458, "Longitude": -89.583837, "Number": 913.0, "Street": "NE Perry Ave", "City": "Peoria", "State": "IL", "Zip": 61603 }, "geometry": { "type": "Point", "coordinates": [ -89.583837, 40.702458 ] } },
{ "type": "Feature", "properties": { "program": "HOME CHDO New Construction ", "Latitude": 40.693137, "Longitude": -89.589847, "Number": 1915.0, "Street": "Delaware", "City": "Peoria", "State": "IL", "Zip": 61601 }, "geometry": { "type": "Point", "coordinates": [ -89.589847, 40.693137 ] } },
{ "type": "Feature", "properties": { "program": "HOME CHDO New Construction ", "Latitude": 40.709533, "Longitude": -89.579139, "Number": 1833.0, "Street": "N Atlantic Ave", "City": "Peoria", "State": "IL", "Zip": 61603 }, "geometry": { "type": "Point", "coordinates": [ -89.579139, 40.709533 ] } },
{ "type": "Feature", "properties": { "program": "HOME CHDO New Construction ", "Latitude": 40.709998, "Longitude": -89.582894, "Number": 900.0, "Street": "E Nebraska Ave", "City": "Peoria", "State": "IL", "Zip": 61603 }, "geometry": { "type": "Point", "coordinates": [ -89.582894, 40.709998 ] } },
{ "type": "Feature", "properties": { "program": "HOME CHDO New Construction ", "Latitude": 40.702348, "Longitude": -89.581333, "Number": 1021.0, "Street": "NE Monroe St", "City": "Peoria", "State": "IL", "Zip": 61602 }, "geometry": { "type": "Point", "coordinates": [ -89.581333, 40.702348 ] } },
{ "type": "Feature", "properties": { "program": "HOME CHDO New Construction ", "Latitude": 40.693137, "Longitude": -89.589847, "Number": 4104.0, "Street": "N Propsect", "City": "Peoria", "State": "IL", "Zip": 61601 }, "geometry": { "type": "Point", "coordinates": [ -89.589847, 40.693137 ] } },
{ "type": "Feature", "properties": { "program": "HOME CHDO New Construction ", "Latitude": 40.702472, "Longitude": -89.581133, "Number": 1025.0, "Street": "NE Monroe St", "City": "Peoria", "State": "IL", "Zip": 61602 }, "geometry": { "type": "Point", "coordinates": [ -89.581133, 40.702472 ] } },
{ "type": "Feature", "properties": { "program": "HOME CHDO New Construction ", "Latitude": 40.70222, "Longitude": -89.581687, "Number": 1009.0, "Street": "NE Monroe St", "City": "Peoria", "State": "IL", "Zip": 61602 }, "geometry": { "type": "Point", "coordinates": [ -89.581687, 40.70222 ] } },
{ "type": "Feature", "properties": { "program": "HOME CHDO New Construction ", "Latitude": 40.702298, "Longitude": -89.581546, "Number": 1015.0, "Street": "NE Monroe St", "City": "Peoria", "State": "IL", "Zip": 61602 }, "geometry": { "type": "Point", "coordinates": [ -89.581546, 40.702298 ] } },
{ "type": "Feature", "properties": { "program": "HOME CHDO New Construction ", "Latitude": 40.700903, "Longitude": -89.582346, "Number": 912.0, "Street": "NE Monroe St", "City": "Peoria", "State": "IL", "Zip": 61603 }, "geometry": { "type": "Point", "coordinates": [ -89.582346, 40.700903 ] } },
{ "type": "Feature", "properties": { "program": "HOME CHDO New Construction ", "Latitude": 40.701674, "Longitude": -89.581501, "Number": 1030.0, "Street": "NE Monroe St", "City": "Peoria", "State": "IL", "Zip": 61603 }, "geometry": { "type": "Point", "coordinates": [ -89.581501, 40.701674 ] } },
{ "type": "Feature", "properties": { "program": "HOME CHDO New Construction ", "Latitude": 40.701905, "Longitude": -89.580885, "Number": 1022.0, "Street": "NE Monroe St", "City": "Peoria", "State": "IL", "Zip": 61602 }, "geometry": { "type": "Point", "coordinates": [ -89.580885, 40.701905 ] } },
{ "type": "Feature", "properties": { "program": "HOME CHDO New Construction ", "Latitude": 40.736488, "Longitude": -89.573874, "Number": 4100.0, "Street": "N Prospect Rd", "City": "Peoria", "State": "IL", "Zip": 61614 }, "geometry": { "type": "Point", "coordinates": [ -89.573874, 40.736488 ] } },
{ "type": "Feature", "properties": { "program": "HOME CHDO New Construction ", "Latitude": 40.701568, "Longitude": -89.579959, "Number": 1029.0, "Street": "NE Madison Ave", "City": "Peoria", "State": "IL", "Zip": 61603 }, "geometry": { "type": "Point", "coordinates": [ -89.579959, 40.701568 ] } },
{ "type": "Feature", "properties": { "program": "HOME CHDO New Construction ", "Latitude": 40.70144, "Longitude": -89.581614, "Number": 1002.0, "Street": "NE Monroe St", "City": "Peoria", "State": "IL", "Zip": 61603 }, "geometry": { "type": "Point", "coordinates": [ -89.581614, 40.70144 ] } },
{ "type": "Feature", "properties": { "program": "HOME CHDO New Construction ", "Latitude": 40.702554, "Longitude": -89.580956, "Number": 1031.0, "Street": "NE Monroe St", "City": "Peoria", "State": "IL", "Zip": 61603 }, "geometry": { "type": "Point", "coordinates": [ -89.580956, 40.702554 ] } },
{ "type": "Feature", "properties": { "program": "HOME CHDO New Construction ", "Latitude": 40.701096, "Longitude": -89.579481, "Number": 1026.0, "Street": "NE Madison Ave", "City": "Peoria", "State": "IL", "Zip": 61603 }, "geometry": { "type": "Point", "coordinates": [ -89.579481, 40.701096 ] } },
{ "type": "Feature", "properties": { "program": "HOME CHDO New Construction ", "Latitude": 40.70183, "Longitude": -89.579582, "Number": 1101.0, "Street": "NE Madison Ave", "City": "Peoria", "State": "IL", "Zip": 61603 }, "geometry": { "type": "Point", "coordinates": [ -89.579582, 40.70183 ] } },
{ "type": "Feature", "properties": { "program": "HOME CHDO New Construction ", "Latitude": 40.701991, "Longitude": -89.580706, "Number": 1026.0, "Street": "NE Monroe St", "City": "Peoria", "State": "IL", "Zip": 61602 }, "geometry": { "type": "Point", "coordinates": [ -89.580706, 40.701991 ] } },
{ "type": "Feature", "properties": { "program": "HOME Access Peoria", "Latitude": 40.707751, "Longitude": -89.585552, "Number": 713.0, "Street": "E Lasalle St", "City": "Peoria", "State": "IL", "Zip": 61603 }, "geometry": { "type": "Point", "coordinates": [ -89.585552, 40.707751 ] } },
{ "type": "Feature", "properties": { "program": "HOME Access Peoria", "Latitude": 40.707893, "Longitude": -89.586796, "Number": 1707.0, "Street": "N Indiana Ave", "City": "Peoria", "State": "IL", "Zip": 61603 }, "geometry": { "type": "Point", "coordinates": [ -89.586796, 40.707893 ] } }
]
}
